City_ID,City,Country,Date,Lat,Lng,Max Temp,Humidity,Cloudiness,Wind Speed
0,Busselton,AU,2020-02-22 21:26:02,-33.65,115.33,66.99,68,5,10.8
1,Avarua,CK,2020-02-22 21:22:56,-21.21,-159.78,80.6,78,69,8.05
2,Floriano,BR,2020-02-22 21:27:21,-6.77,-43.02,82.38,77,51,1.72
3,Punta Arenas,CL,2020-02-22 21:22:25,-53.15,-70.92,69.8,46,100,25.28
4,Port Alfred,ZA,2020-02-22 21:23:43,-33.59,26.89,63.0,96,100,5.01
5,Georgetown,MY,2020-02-22 21:25:15,5.41,100.34,80.6,78,20,2.24
6,Rikitea,PF,2020-02-22 21:23:04,-23.12,-134.97,78.94,70,1,7.52
7,Bethel,US,2020-02-22 21:27:22,41.37,-73.41,50.0,20,1,8.05
8,Atasu,KZ,2020-02-22 21:27:22,48.68,71.64,11.14,94,100,6.89
9,Kapaa,US,2020-02-22 21:27:23,22.08,-159.32,78.8,65,20,6.93
10,Ancud,CL,2020-02-22 21:23:32,-41.87,-73.82,80.6,28,0,5.82
11,Lebu,CL,2020-02-22 21:26:23,-37.62,-73.65,66.42,62,15,5.06
12,Port Lincoln,AU,2020-02-22 21:27:23,-34.73,135.87,64.6,82,0,6.15
13,Vao,NC,2020-02-22 21:27:24,-22.67,167.48,79.23,73,0,10.69
14,Cape Town,ZA,2020-02-22 21:26:04,-33.93,18.42,66.99,77,20,24.16
15,Saint George,US,2020-02-22 21:24:44,37.1,-113.58,51.8,81,90,13.87
16,Albany,US,2020-02-22 21:26:06,42.6,-73.97,43.0,44,1,13.87
17,Ushuaia,AR,2020-02-22 21:25:04,-54.8,-68.3,69.8,52,75,9.17
18,Alice Springs,AU,2020-02-22 21:27:25,-23.7,133.88,60.8,31,0,2.24
19,Castro,BR,2020-02-22 21:23:33,-24.79,-50.01,70.52,75,34,5.53
20,Manicore,BR,2020-02-22 21:27:26,-5.81,-61.3,76.51,95,100,3.96
21,Omis,HR,2020-02-22 21:27:26,43.44,16.69,51.8,50,32,10.29
22,Torbay,CA,2020-02-22 21:26:11,47.67,-52.73,24.01,67,20,20.8
23,Mangrol,IN,2020-02-22 21:27:26,21.12,70.12,76.32,44,0,12.93
24,Codrington,AU,2020-02-22 21:27:26,-38.27,141.97,58.05,77,0,7.23
25,Sungai Besar,MY,2020-02-22 21:27:27,3.67,100.99,77.0,94,40,3.36
26,Uvat,RU,2020-02-22 21:27:27,59.14,68.9,7.23,96,2,4.92
27,Tsabong,BW,2020-02-22 21:27:27,-26.02,22.4,78.78,57,98,4.34
28,Carnarvon,AU,2020-02-22 21:23:26,-24.87,113.63,75.2,83,40,5.82
29,Tasiilaq,GL,2020-02-22 21:27:27,65.61,-37.64,15.8,66,100,2.24
30,Kariba,ZW,2020-02-22 21:27:28,-16.52,28.8,72.88,91,92,3.69
31,Hilo,US,2020-02-22 21:26:02,19.73,-155.09,80.6,54,20,6.93
32,Nemuro,JP,2020-02-22 21:27:28,43.32,145.57,32.99,77,1,24.58
33,Kaitangata,NZ,2020-02-22 21:26:14,-46.28,169.85,60.01,63,66,17.0
34,Atuona,PF,2020-02-22 21:27:28,-9.8,-139.03,81.86,76,0,13.73
35,Ossora,RU,2020-02-22 21:27:29,59.24,163.07,-9.67,80,9,1.63
36,Henties Bay,NA,2020-02-22 21:27:17,-22.12,14.28,64.99,87,0,1.01
37,Kahului,US,2020-02-22 21:22:47,20.89,-156.47,80.6,51,40,6.93
38,Ust-Karsk,RU,2020-02-22 21:27:29,52.7,118.81,9.5,96,100,2.42
39,Sulangan,PH,2020-02-22 21:27:29,11.14,123.72,78.21,73,3,11.41
40,Souillac,MU,2020-02-22 21:27:30,-20.52,57.52,77.0,88,75,3.36
41,Moindou,NC,2020-02-22 21:27:30,-21.69,165.68,80.6,61,0,2.24
42,San Matias,BO,2020-02-22 21:27:30,-16.37,-58.4,64.74,96,100,4.59
43,Ust-Maya,RU,2020-02-22 21:27:30,60.42,134.53,-3.33,99,99,1.07
44,Butaritari,KI,2020-02-22 21:23:46,3.07,172.79,83.89,75,94,6.55
45,Khatanga,RU,2020-02-22 21:27:31,71.97,102.5,6.87,83,100,14.27
46,Karatuzskoye,RU,2020-02-22 21:27:31,53.61,92.87,15.4,94,100,2.98
47,Vaini,TO,2020-02-22 21:23:29,-21.2,-175.2,82.4,88,75,9.17
48,Isangel,VU,2020-02-22 21:27:31,-19.55,169.27,82.4,78,20,16.35
49,Lixourion,GR,2020-02-22 21:24:16,38.2,20.43,54.3,47,0,4.5
50,Mount Gambier,AU,2020-02-22 21:25:02,-37.83,140.77,50.0,100,3,3.33
51,Pevek,RU,2020-02-22 21:27:18,69.7,170.31,-12.15,98,100,10.78
52,Mataura,NZ,2020-02-22 21:27:32,-46.19,168.86,59.0,79,70,17.0
53,Okhotsk,RU,2020-02-22 21:27:32,59.38,143.3,-12.35,100,87,3.8
54,Jamestown,US,2020-02-22 21:22:53,42.1,-79.24,42.8,44,1,18.34
55,Markova,UA,2020-02-22 21:27:33,48.68,24.41,32.0,76,100,16.22
56,Cap Malheureux,MU,2020-02-22 21:27:33,-19.98,57.61,77.0,88,75,3.36
57,Barrow,US,2020-02-22 21:26:24,71.29,-156.79,-11.2,76,90,5.82
58,Tiznit,MA,2020-02-22 21:27:33,29.58,-9.5,65.12,18,0,18.1
59,Alta Floresta,BR,2020-02-22 21:27:34,-9.88,-56.09,89.6,62,40,5.82
60,Oranjemund,NA,2020-02-22 21:27:34,-28.55,16.43,64.6,85,0,14.34
61,East London,ZA,2020-02-22 21:27:34,-33.02,27.91,72.21,81,100,22.64
62,Vardo,NO,2020-02-22 21:27:34,70.37,31.11,33.4,82,5,25.99
63,Cacapava Do Sul,BR,2020-02-22 21:25:05,-30.51,-53.49,73.45,40,0,6.98
64,Toamasina,MG,2020-02-22 21:27:35,-18.17,49.38,77.0,94,75,10.2
65,Bredasdorp,ZA,2020-02-22 21:26:12,-34.53,20.04,64.4,68,93,6.93
66,Vostok,RU,2020-02-22 21:27:35,46.49,135.88,8.71,96,100,5.01
67,Kloulklubed,PW,2020-02-22 21:24:05,7.04,134.26,80.6,78,90,10.29
68,Tuatapere,NZ,2020-02-22 21:23:25,-46.13,167.68,59.0,79,32,17.0
69,Airai,TL,2020-02-22 21:27:36,-8.93,125.41,66.29,82,8,4.83
70,Kelme,LT,2020-02-22 21:27:36,55.63,22.93,41.0,86,75,17.22
71,Puksoozero,RU,2020-02-22 21:27:37,62.59,40.61,31.46,91,100,19.48
72,Jian,CN,2020-02-22 21:23:36,27.12,114.98,53.38,90,58,0.47
73,Shuangcheng,CN,2020-02-22 21:27:37,45.35,126.28,5.0,92,0,6.71
74,Gao,ML,2020-02-22 21:27:37,16.64,1.64,81.81,9,85,14.76
75,Provideniya,RU,2020-02-22 21:23:54,64.38,-173.3,-14.6,87,18,2.73
76,Asau,RO,2020-02-22 21:26:43,46.43,26.4,34.0,80,0,5.82
77,Dikson,RU,2020-02-22 21:27:06,73.51,80.55,16.52,93,100,25.37
78,Tiksi,RU,2020-02-22 21:27:38,71.69,128.87,-11.67,90,90,7.4
79,Riyadh,SA,2020-02-22 21:23:34,24.69,46.72,68.0,34,0,10.29
80,Abonnema,NG,2020-02-22 21:24:43,4.71,6.79,87.8,70,20,6.93
81,Adrar,MR,2020-02-22 21:26:32,20.5,-10.07,83.16,10,95,11.59
82,Kruisfontein,ZA,2020-02-22 21:27:40,-34.0,24.73,63.36,84,100,16.15
83,Marzuq,YE,2020-02-22 21:27:40,14.4,46.47,64.36,49,0,3.76
84,Yatou,CN,2020-02-22 21:27:40,37.15,122.38,34.77,50,0,5.75
85,Springbok,ZA,2020-02-22 21:27:40,-29.66,17.89,61.56,62,0,11.54
86,Lompoc,US,2020-02-22 21:27:40,34.64,-120.46,64.0,59,20,14.99
87,Havelock,US,2020-02-22 21:24:31,34.88,-76.9,54.0,25,1,3.36
88,Lakes Entrance,AU,2020-02-22 21:27:41,-37.88,147.98,61.0,92,0,5.5
89,Sao Filipe,CV,2020-02-22 21:27:41,14.9,-24.5,67.42,82,84,20.85
90,Port Elizabeth,ZA,2020-02-22 21:26:33,-33.92,25.57,67.01,76,100,17.49
91,Andenes,NO,2020-02-22 21:27:42,69.31,16.12,35.01,100,100,16.11
92,Uong Bi,VN,2020-02-22 21:27:42,21.03,106.78,64.4,93,0,2.24
93,Barra Do Bugres,BR,2020-02-22 21:27:42,-15.07,-57.18,68.36,96,100,4.99
94,Mabopane,ZA,2020-02-22 21:27:42,-25.5,28.1,69.01,93,100,6.93
95,Yarovoye,RU,2020-02-22 21:27:43,52.93,78.58,16.65,96,76,6.85
96,Shyryayeve,UA,2020-02-22 21:27:43,47.38,30.2,36.07,65,0,6.76
97,Paamiut,GL,2020-02-22 21:27:43,61.99,-49.67,16.95,89,100,14.63
98,Lubao,PH,2020-02-22 21:27:43,14.92,120.55,77.0,78,20,3.36
99,Grand Forks,US,2020-02-22 21:27:12,47.93,-97.03,35.6,80,1,5.48
100,Erenhot,CN,2020-02-22 21:25:21,43.65,111.98,20.79,70,91,15.39
101,Mar Del Plata,AR,2020-02-22 21:27:44,-38.0,-57.56,62.6,67,0,13.87
102,Saint-Philippe,RE,2020-02-22 21:27:44,-21.36,55.77,75.2,69,100,6.93
103,Walvis Bay,NA,2020-02-22 21:27:45,-22.96,14.51,66.2,72,10,2.24
104,Lufilufi,WS,2020-02-22 21:27:45,-13.87,-171.6,80.6,94,75,23.49
105,Sunrise Manor,US,2020-02-22 21:27:45,36.21,-115.07,60.8,76,75,5.82
106,Milos,GR,2020-02-22 21:27:45,36.75,24.43,51.8,62,66,24.16
107,Saskylakh,RU,2020-02-22 21:26:28,71.92,114.08,-13.74,93,39,5.1
108,New Norfolk,AU,2020-02-22 21:27:46,-42.78,147.06,53.6,76,20,6.93
109,Saint-Pierre,RE,2020-02-22 21:27:46,-21.34,55.48,75.2,69,100,6.93
110,Shetpe,KZ,2020-02-22 21:27:46,44.17,52.12,39.65,67,100,8.16
111,Lashio,MM,2020-02-22 21:27:46,22.93,97.75,64.09,53,100,1.52
112,Longyearbyen,SJ,2020-02-22 21:26:20,78.22,15.64,-0.4,70,20,12.75
113,Thompson,CA,2020-02-22 21:27:47,55.74,-97.86,26.6,49,20,2.24
114,Gafanha Da Encarnacao,PT,2020-02-22 21:27:47,40.62,-8.73,59.0,87,0,2.24
115,San Pedro,PH,2020-02-22 21:27:47,14.35,121.02,77.0,69,40,1.12
116,Qaanaaq,GL,2020-02-22 21:27:47,77.48,-69.36,-14.08,64,99,4.52
117,Hovd,MN,2020-02-22 21:27:48,48.01,91.64,17.78,64,100,2.91
118,Jeremoabo,BR,2020-02-22 21:27:48,-10.07,-38.48,83.86,56,100,4.23
119,Mountain Home,US,2020-02-22 21:27:48,43.13,-115.69,46.99,31,1,9.33
120,Shima,CN,2020-02-22 21:27:48,24.45,117.81,60.8,51,75,13.42
121,Espanola,US,2020-02-22 21:27:49,35.99,-106.08,46.99,65,90,3.36
122,Puerto Ayora,EC,2020-02-22 21:26:15,-0.74,-90.35,82.4,78,40,9.17
123,Chuy,UY,2020-02-22 21:27:49,-33.7,-53.46,67.87,62,31,11.77
124,Te Anau,NZ,2020-02-22 21:27:50,-45.42,167.72,51.8,74,60,2.51
125,Fortuna,US,2020-02-22 21:27:50,40.6,-124.16,61.0,81,90,6.93
126,Igarka,RU,2020-02-22 21:27:47,67.47,86.58,5.23,88,100,13.76
127,Bambous Virieux,MU,2020-02-22 21:25:13,-20.34,57.76,77.0,88,75,3.36
128,Brae,GB,2020-02-22 21:27:50,60.4,-1.35,41.0,80,68,19.46
129,Mecca,SA,2020-02-22 21:27:51,21.43,39.83,69.26,49,0,2.19
130,Yerbogachen,RU,2020-02-22 21:24:48,61.28,108.01,10.27,96,85,4.85
131,Kavieng,PG,2020-02-22 21:26:58,-2.57,150.8,83.43,73,13,5.53
132,Port Augusta,AU,2020-02-22 21:27:51,-32.5,137.77,66.0,87,0,6.93
133,Gondar,ET,2020-02-22 21:27:51,12.6,37.47,61.56,33,0,6.46
134,Bluff,NZ,2020-02-22 21:27:52,-46.6,168.33,59.0,79,68,17.0
135,Sao Joao Da Barra,BR,2020-02-22 21:27:52,-21.64,-41.05,75.2,78,75,20.8
136,Saquena,PE,2020-02-22 21:27:52,-4.67,-73.52,90.01,59,100,1.5
137,Camacha,PT,2020-02-22 21:27:52,33.08,-16.33,64.4,88,40,27.51
138,Tucuman,AR,2020-02-22 21:27:53,-26.82,-65.22,71.6,64,75,6.93
139,Alofi,NU,2020-02-22 21:27:01,-19.06,-169.92,80.22,88,44,10.51
140,Leshukonskoye,RU,2020-02-22 21:27:53,64.9,45.76,33.04,82,100,16.71
141,Roald,NO,2020-02-22 21:27:53,62.58,6.13,39.2,93,75,33.33
142,Hermanus,ZA,2020-02-22 21:27:54,-34.42,19.23,66.99,91,89,1.01
143,Ilulissat,GL,2020-02-22 21:27:54,69.22,-51.1,-0.4,54,20,5.82
144,Ambilobe,MG,2020-02-22 21:27:54,-13.2,49.05,75.58,92,100,5.12
145,Goderich,CA,2020-02-22 21:27:54,43.75,-81.72,39.0,72,0,11.01
146,Olafsvik,IS,2020-02-22 21:27:54,64.89,-23.71,28.99,70,100,5.37
147,Genhe,CN,2020-02-22 21:27:55,50.78,121.52,-0.87,99,100,2.68
148,Cabo San Lucas,MX,2020-02-22 21:23:09,22.89,-109.91,84.2,35,40,9.17
149,Egvekinot,RU,2020-02-22 21:23:51,66.32,-179.17,-30.23,100,95,1.54
150,Severo-Kurilsk,RU,2020-02-22 21:27:55,50.68,156.12,7.7,89,31,0.74
151,Kodiak,US,2020-02-22 21:23:58,57.79,-152.41,21.2,53,1,10.29
152,Isilkul,RU,2020-02-22 21:27:56,54.91,71.27,20.61,96,80,6.11
153,Bulgan,MN,2020-02-22 21:27:56,48.81,103.53,15.71,70,88,3.87
154,Tomatlan,MX,2020-02-22 21:27:56,19.93,-105.25,93.7,30,68,6.82
155,Akdepe,TM,2020-02-22 21:26:06,42.06,59.38,42.8,87,90,4.7
156,Havoysund,NO,2020-02-22 21:27:56,71.0,24.66,32.0,70,84,13.87
157,Yulara,AU,2020-02-22 21:27:57,-25.24,130.99,68.0,24,0,9.17
158,Mildura,AU,2020-02-22 21:27:07,-34.2,142.15,60.8,48,0,5.82
159,Victoria,HK,2020-02-22 21:25:08,22.29,114.16,64.99,77,20,20.8
160,Hudson Bay,CA,2020-02-22 21:27:57,52.85,-102.38,35.92,92,67,5.32
161,Arraial Do Cabo,BR,2020-02-22 21:27:57,-22.97,-42.03,77.0,88,75,13.87
162,Chokurdakh,RU,2020-02-22 21:27:57,70.63,147.92,-13.88,97,100,1.48
163,Mgandu,TZ,2020-02-22 21:27:58,-5.95,34.13,64.53,94,100,4.5
164,Pandan,PH,2020-02-22 21:27:58,14.05,124.17,78.1,81,6,17.6
165,Abnub,EG,2020-02-22 21:27:59,27.27,31.15,53.6,62,0,9.17
166,Maniitsoq,GL,2020-02-22 21:27:59,65.42,-52.9,10.0,82,100,11.43
167,Lebedinyy,RU,2020-02-22 21:28:00,58.52,125.52,7.88,95,100,5.61
168,Amalapuram,IN,2020-02-22 21:28:00,16.58,82.02,67.64,89,0,2.75
169,Grand Gaube,MU,2020-02-22 21:28:00,-20.01,57.66,77.0,88,75,3.36
170,Caramoan,PH,2020-02-22 21:23:06,13.77,123.86,78.1,81,6,17.6
171,Buta,CD,2020-02-22 21:28:00,2.79,24.73,82.18,35,95,3.0
172,Itarema,BR,2020-02-22 21:28:01,-2.92,-39.92,74.1,96,100,6.11
173,Northam,GB,2020-02-22 21:25:00,51.03,-4.22,50.0,76,20,10.29
174,Akhtubinsk,RU,2020-02-22 21:28:01,48.28,46.17,31.84,84,94,8.39
175,Tautira,PF,2020-02-22 21:24:39,-17.73,-149.15,87.8,70,40,13.87
176,Amsterdam,NL,2020-02-22 21:26:01,52.37,4.89,51.01,81,40,16.11
177,Awjilah,LY,2020-02-22 21:28:02,29.11,21.29,55.53,59,0,13.44
178,Eureka,US,2020-02-22 21:28:02,40.8,-124.16,55.0,76,75,6.93
179,Buala,SB,2020-02-22 21:24:06,-8.14,159.59,81.03,80,2,3.71
180,Mahebourg,MU,2020-02-22 21:28:02,-20.41,57.7,77.0,88,75,3.36
181,Half Moon Bay,US,2020-02-22 21:28:03,37.46,-122.43,69.8,62,40,16.11
182,Lerwick,GB,2020-02-22 21:25:55,60.15,-1.15,41.0,80,76,24.16
183,Orcopampa,PE,2020-02-22 21:23:04,-15.27,-72.34,41.45,94,99,8.95
184,Conde,BR,2020-02-22 21:27:23,-7.26,-34.91,82.4,83,20,9.17
185,Yellowknife,CA,2020-02-22 21:28:03,62.46,-114.35,5.0,60,20,6.93
186,Faanui,PF,2020-02-22 21:26:20,-16.48,-151.75,82.04,74,49,9.24
187,Pirgos,GR,2020-02-22 21:28:04,35.12,25.72,53.6,62,75,16.11
188,Haines Junction,CA,2020-02-22 21:24:02,60.75,-137.51,12.29,93,99,6.06
189,Moerai,PF,2020-02-22 21:28:04,-22.43,-151.33,80.65,69,100,7.9
190,Lasa,IT,2020-02-22 21:27:56,46.62,10.7,41.0,69,5,5.82
191,Norman Wells,CA,2020-02-22 21:26:39,65.28,-126.83,6.8,77,75,5.82
192,Aripuana,BR,2020-02-22 21:28:05,-9.17,-60.63,80.94,80,100,1.61
193,Nome,US,2020-02-22 21:24:17,64.5,-165.41,-16.6,82,1,3.24
194,Sisimiut,GL,2020-02-22 21:24:40,66.94,-53.67,-3.98,81,100,5.12
195,Utete,TZ,2020-02-22 21:28:06,-7.99,38.76,76.06,94,100,0.65
196,Coahuayana,MX,2020-02-22 21:27:35,18.73,-103.68,86.0,48,40,11.41
197,Takoradi,GH,2020-02-22 21:28:06,4.88,-1.76,79.57,89,78,5.95
198,Lata,PT,2020-02-22 21:25:13,40.16,-8.33,59.0,93,0,3.36
199,Devils Lake,US,2020-02-22 21:28:07,48.11,-98.87,35.6,74,1,8.05
200,Carballo,ES,2020-02-22 21:28:07,43.21,-8.69,52.0,100,0,1.12
201,Bengkulu,ID,2020-02-22 21:27:22,-3.8,102.27,73.42,89,2,4.56
202,Hobart,AU,2020-02-22 21:26:23,-42.88,147.33,53.6,76,20,6.93
203,Nikolskoye,RU,2020-02-22 21:24:05,59.7,30.79,35.01,93,90,13.42
204,Talnakh,RU,2020-02-22 21:23:51,69.49,88.4,8.6,84,100,24.61
205,Mayo,US,2020-02-22 21:28:08,38.89,-76.51,55.0,18,1,6.93
206,Waddan,LY,2020-02-22 21:28:08,29.16,16.14,55.47,46,0,9.44
207,Ponta Delgada,PT,2020-02-22 21:28:08,37.73,-25.67,57.2,76,20,4.7
208,Constitucion,CL,2020-02-22 21:23:24,-35.33,-72.42,62.53,72,0,6.11
209,Lexington,US,2020-02-22 21:27:01,37.99,-84.48,52.0,21,1,6.93
210,Ahome,MX,2020-02-22 21:28:09,25.92,-109.18,86.0,28,90,7.36
211,Rabo De Peixe,PT,2020-02-22 21:28:09,37.8,-25.58,57.2,76,20,4.7
212,Auki,SB,2020-02-22 21:28:09,-8.77,160.7,82.92,77,6,4.14
213,Tashtyp,RU,2020-02-22 21:28:09,52.79,89.9,20.26,96,100,4.74
214,San Quintin,MX,2020-02-22 21:28:10,30.48,-115.95,61.34,67,18,13.71
215,Banda Aceh,ID,2020-02-22 21:25:07,5.56,95.32,72.75,91,0,4.41
216,Jhelum,PK,2020-02-22 21:28:10,32.93,73.73,58.08,59,0,3.6
217,Hofn,IS,2020-02-22 21:27:35,64.25,-15.21,34.3,67,100,9.62
218,Murdochville,CA,2020-02-22 21:28:11,48.96,-65.5,25.29,81,55,8.01
219,Khuzhir,RU,2020-02-22 21:28:11,53.19,107.34,18.14,86,100,12.44
220,Zhigansk,RU,2020-02-22 21:26:06,66.77,123.37,-10.16,96,100,7.16
221,Lagoa,PT,2020-02-22 21:27:06,39.05,-27.98,59.61,81,0,10.2
222,Chengde,CN,2020-02-22 21:28:11,40.97,117.94,21.34,49,0,1.14
223,Parana,AR,2020-02-22 21:28:12,-31.73,-60.52,84.99,27,0,1.99
224,Hithadhoo,MV,2020-02-22 21:26:34,-0.6,73.08,82.15,81,89,14.03
225,Mersing,MY,2020-02-22 21:28:12,2.43,103.84,80.6,83,0,12.75
226,Cayenne,GF,2020-02-22 21:28:12,4.93,-52.33,82.4,78,90,11.41
227,Scarborough,GB,2020-02-22 21:28:12,54.28,-0.4,45.0,75,67,19.46
228,Pimenta Bueno,BR,2020-02-22 21:28:13,-11.67,-61.19,69.42,98,100,5.12
229,Druzhba,UA,2020-02-22 21:28:13,52.04,33.95,32.92,82,100,17.31
230,Khandyga,RU,2020-02-22 21:28:13,62.67,135.6,-4.25,98,98,1.7
231,Vila Velha,BR,2020-02-22 21:28:13,-20.33,-40.29,78.8,88,90,6.93
232,Honningsvag,NO,2020-02-22 21:28:13,70.98,25.97,36.01,75,53,26.93
233,Olds,CA,2020-02-22 21:28:14,51.78,-114.1,34.0,82,75,8.05
234,Riachao Das Neves,BR,2020-02-22 21:28:14,-11.75,-44.91,76.53,89,85,2.57
235,Takaka,NZ,2020-02-22 21:28:14,-40.85,172.8,64.0,67,7,4.0
236,Lavrentiya,RU,2020-02-22 21:28:14,65.58,-171.0,-17.19,96,33,5.91
237,Qingdao,CN,2020-02-22 21:28:15,36.1,120.37,37.99,64,0,6.71
238,Churapcha,RU,2020-02-22 21:28:15,62.0,132.43,-7.06,99,93,2.73
239,Touros,BR,2020-02-22 21:24:54,-5.2,-35.46,82.4,83,75,6.93
240,Anadyr,RU,2020-02-22 21:28:15,64.75,177.48,-16.6,68,0,6.71
241,Padang,ID,2020-02-22 21:27:57,-0.95,100.35,70.09,83,0,6.89
242,Santa Cruz De Tenerife,ES,2020-02-22 21:26:32,28.47,-16.25,69.01,42,100,18.34
243,Vangaindrano,MG,2020-02-22 21:28:16,-23.35,47.6,72.55,96,100,2.75
244,Hasaki,JP,2020-02-22 21:26:32,35.73,140.83,46.4,42,20,4.7
245,George,ZA,2020-02-22 21:28:16,-33.96,22.46,62.6,88,100,8.05
246,Orlik,RU,2020-02-22 21:28:16,52.52,99.83,5.13,92,100,2.46
247,Sorland,NO,2020-02-22 21:28:17,67.67,12.69,40.95,77,96,19.48
248,Kananga,CD,2020-02-22 21:28:17,-5.9,22.42,73.9,87,98,4.27
249,Maragogi,BR,2020-02-22 21:26:49,-9.01,-35.22,82.13,80,70,14.45
250,Agadir,MA,2020-02-22 21:28:17,30.42,-9.6,71.6,26,0,9.17
251,Beloha,MG,2020-02-22 21:28:18,-25.17,45.05,77.22,81,3,9.06
252,Hay River,CA,2020-02-22 21:28:18,60.82,-115.8,6.8,77,75,8.05
253,Cabedelo,BR,2020-02-22 21:28:18,-6.98,-34.83,82.4,83,20,9.17
254,Dakar,SN,2020-02-22 21:28:18,14.69,-17.44,71.6,88,40,16.11
255,Moranbah,AU,2020-02-22 21:28:19,-22.0,148.05,73.76,83,99,15.79
256,Januaria,BR,2020-02-22 21:24:45,-15.48,-44.37,78.04,87,87,3.71
257,Shahrud,IR,2020-02-22 21:28:19,36.42,54.98,41.29,77,0,0.63
258,Kollam,IN,2020-02-22 21:27:07,8.88,76.6,78.8,83,40,18.86
259,Zherdevka,RU,2020-02-22 21:28:20,51.85,41.46,28.2,98,97,5.55
260,Abu Samrah,SY,2020-02-22 21:28:20,35.3,37.18,48.97,84,100,5.3
261,Boende,CD,2020-02-22 21:25:00,-0.22,20.87,78.24,55,67,1.83
262,Srednekolymsk,RU,2020-02-22 21:28:20,67.45,153.68,-27.51,100,95,1.21
263,Laguna,US,2020-02-22 21:28:21,38.42,-121.42,73.99,30,1,4.03
264,Roebourne,AU,2020-02-22 21:28:21,-20.78,117.13,79.65,60,0,10.25
265,Dunedin,NZ,2020-02-22 21:28:21,-45.87,170.5,54.72,61,73,6.38
266,Ribeira Grande,PT,2020-02-22 21:27:13,38.52,-28.7,59.0,72,75,4.7
267,Xuanhua,CN,2020-02-22 21:28:21,40.61,115.04,24.39,25,0,2.68
268,Yangjiang,CN,2020-02-22 21:28:22,21.85,111.97,62.56,81,0,3.91
269,Tecuala,MX,2020-02-22 21:28:22,22.4,-105.46,91.85,34,100,6.64
270,Saldanha,ZA,2020-02-22 21:24:05,-33.01,17.94,66.2,77,85,11.41
271,Sinop,TR,2020-02-22 21:28:22,41.77,34.87,43.0,79,98,12.75
272,Upernavik,GL,2020-02-22 21:23:41,72.79,-56.15,-15.9,94,78,4.88
273,Deputatskiy,RU,2020-02-22 21:24:51,69.3,139.9,-12.66,100,93,0.58
274,Korla,CN,2020-02-22 21:28:23,41.76,86.15,25.97,49,0,2.86
275,Benjamin Hill,MX,2020-02-22 21:28:23,30.17,-111.1,70.0,61,100,1.99
276,Sioux Lookout,CA,2020-02-22 21:28:24,50.1,-91.92,41.0,41,75,5.82
277,Cherskiy,RU,2020-02-22 21:28:24,68.75,161.3,-20.52,97,96,4.97
278,Upington,ZA,2020-02-22 21:28:24,-28.45,21.26,77.0,25,0,9.17
279,Vestmannaeyjar,IS,2020-02-22 21:24:27,63.44,-20.27,34.2,60,100,5.57
280,Prado,BR,2020-02-22 21:27:02,-17.34,-39.22,81.5,84,94,15.95
281,Wanning,CN,2020-02-22 21:28:25,18.8,110.4,63.61,91,36,4.5
282,Qingyuan,CN,2020-02-22 21:28:25,23.7,113.03,69.01,82,20,2.51
283,La Cumbre,AR,2020-02-22 21:28:25,-30.98,-64.49,73.99,60,75,9.17
284,Beni Suef,EG,2020-02-22 21:28:25,29.07,31.1,57.16,57,71,5.3
285,Newton,US,2020-02-22 21:24:51,42.34,-71.21,46.99,28,0,9.17
286,Aklavik,CA,2020-02-22 21:28:26,68.22,-135.01,1.4,77,90,4.7
287,Quatre Cocos,MU,2020-02-22 21:28:26,-20.21,57.76,77.0,88,75,3.36
288,Esperance,AU,2020-02-22 21:26:36,-33.87,121.9,64.4,88,83,4.7
289,Bataipora,BR,2020-02-22 21:28:27,-22.3,-53.27,77.36,67,17,4.99
290,Valparai,IN,2020-02-22 21:28:27,10.37,76.97,80.6,83,40,8.16
291,Stornoway,GB,2020-02-22 21:28:27,58.21,-6.39,39.2,80,57,23.04
292,Aberdeen,GB,2020-02-22 21:28:27,57.14,-2.1,39.0,64,0,19.46
293,Maine-Soroa,NE,2020-02-22 21:28:27,13.21,12.02,73.92,13,0,11.61
294,Tuktoyaktuk,CA,2020-02-22 21:28:28,69.45,-133.04,3.2,84,90,6.93
295,Vila Franca Do Campo,PT,2020-02-22 21:23:36,37.72,-25.43,57.2,76,20,4.7
296,Ibb,YE,2020-02-22 21:28:28,13.97,44.18,68.11,62,0,1.25
297,Kirs,RU,2020-02-22 21:28:28,59.34,52.24,30.36,88,100,11.77
298,Kowary,PL,2020-02-22 21:28:29,50.79,15.84,51.01,62,72,23.42
299,Rawson,AR,2020-02-22 21:28:29,-43.3,-65.1,72.46,42,0,24.87
300,Lorengau,PG,2020-02-22 21:24:54,-2.02,147.27,82.4,75,52,7.67
301,San Ramon,US,2020-02-22 21:25:22,37.78,-121.98,73.4,30,1,16.11
302,Jiaozuo,CN,2020-02-22 21:24:02,35.24,113.23,40.95,56,0,3.53
303,Lhokseumawe,ID,2020-02-22 21:28:30,5.18,97.15,70.34,86,10,2.89
304,La Rioja,ES,2020-02-22 21:26:18,42.25,-2.5,45.0,75,3,2.24
305,Gisborne,NZ,2020-02-22 21:28:31,-38.65,178.0,64.0,69,47,11.99
306,Sur,OM,2020-02-22 21:28:31,22.57,59.53,68.61,82,96,1.74
307,San Patricio,MX,2020-02-22 21:26:37,19.22,-104.7,82.4,74,20,11.41
308,Port-Gentil,GA,2020-02-22 21:28:31,-0.72,8.78,82.4,88,20,5.82
309,Valparaiso,CL,2020-02-22 21:26:08,-33.04,-71.63,69.8,56,0,11.41
310,Safaga,EG,2020-02-22 21:28:32,26.73,33.94,60.8,69,0,8.05
311,Teluknaga,ID,2020-02-22 21:28:32,-6.1,106.64,80.6,83,75,9.17
312,Katakwi,UG,2020-02-22 21:28:32,1.89,33.97,78.48,49,61,6.24
313,Mulchen,CL,2020-02-22 21:28:33,-37.72,-72.23,84.2,37,0,9.17
314,Esil,KZ,2020-02-22 21:28:33,51.96,66.4,22.46,96,100,4.76
315,Baruun-Urt,MN,2020-02-22 21:28:33,46.68,113.28,16.7,76,100,14.41
316,Strezhevoy,RU,2020-02-22 21:26:42,60.73,77.59,-0.4,84,0,2.24
317,Nanortalik,GL,2020-02-22 21:28:34,60.14,-45.24,27.57,89,100,17.9
318,Lingao,CN,2020-02-22 21:28:34,19.91,109.69,66.88,80,11,9.64
319,San Martin,AR,2020-02-22 21:28:34,-33.08,-68.47,78.8,31,0,6.93
320,Porto Novo,BJ,2020-02-22 21:28:34,6.5,2.6,86.0,84,20,12.75
321,Dahuk,IQ,2020-02-22 21:28:34,36.87,42.99,44.98,88,83,7.49
322,Ulaangom,MN,2020-02-22 21:28:35,49.98,92.07,-4.92,91,59,2.8
323,Kaspiysk,RU,2020-02-22 21:28:35,42.88,47.64,41.0,93,90,2.24
324,Petropavlovsk-Kamchatskiy,RU,2020-02-22 21:28:09,53.05,158.65,-2.2,64,0,8.95
325,Colombia,CU,2020-02-22 21:28:35,20.99,-77.43,71.6,94,75,12.75
326,Manjacaze,MZ,2020-02-22 21:28:36,-24.71,33.88,75.6,90,53,3.29
327,Monrovia,LR,2020-02-22 21:28:36,6.3,-10.8,80.6,83,20,9.04
328,Vryburg,ZA,2020-02-22 21:28:36,-26.96,24.73,67.98,78,63,4.54
329,Maputo,MZ,2020-02-22 21:24:43,-25.97,32.59,82.4,78,75,6.93
330,Gwadar,PK,2020-02-22 21:28:36,25.12,62.33,72.66,76,0,1.54
331,Biltine,TD,2020-02-22 21:28:37,14.53,20.92,73.47,10,0,14.5
332,Palana,RU,2020-02-22 21:24:12,59.12,159.97,2.39,95,100,7.58
333,Thinadhoo,MV,2020-02-22 21:27:08,0.53,72.93,82.49,80,100,14.65
334,Narsaq,GL,2020-02-22 21:28:37,60.92,-46.05,21.2,37,100,18.34
335,Dalbandin,PK,2020-02-22 21:28:38,28.89,64.41,63.18,31,0,4.63
336,Cockburn Town,TC,2020-02-22 21:27:33,21.46,-71.14,78.8,74,75,9.17
337,Kuruman,ZA,2020-02-22 21:28:38,-27.45,23.43,66.0,95,44,0.36
338,Lokosovo,RU,2020-02-22 21:28:38,61.13,74.82,3.81,88,7,6.42
339,Puerto Caimito,PA,2020-02-22 21:28:39,8.87,-79.72,89.6,58,20,17.22
340,Sayyan,YE,2020-02-22 21:28:39,15.17,44.32,54.21,35,0,1.99
341,Puerto Escondido,MX,2020-02-22 21:28:39,15.85,-97.07,86.0,79,20,6.93
342,Majene,ID,2020-02-22 21:28:39,-3.54,118.97,75.69,88,88,3.49
343,Pisco,PE,2020-02-22 21:28:39,-13.7,-76.22,77.0,30,20,11.41
344,Sitka,US,2020-02-22 21:28:40,57.05,-135.33,37.4,80,75,10.29
345,Salalah,OM,2020-02-22 21:28:40,17.02,54.09,75.2,73,75,2.24
346,Santa Fe,AR,2020-02-22 21:24:35,-31.63,-60.7,86.0,28,0,4.0
347,Abaete,BR,2020-02-22 21:28:40,-19.16,-45.45,77.99,83,88,3.65
348,Oskemen,KZ,2020-02-22 21:28:41,49.96,82.61,32.0,98,90,4.47
349,Yantal,RU,2020-02-22 21:28:41,56.85,105.25,10.18,97,97,3.36
350,Jackson,US,2020-02-22 21:28:41,42.42,-122.83,59.0,43,1,0.78
351,Tbilisskaya,RU,2020-02-22 21:28:41,45.36,40.19,41.58,94,100,5.61
352,Miyako,JP,2020-02-22 21:28:41,39.64,141.95,37.92,66,21,14.23
353,Port Hardy,CA,2020-02-22 21:28:42,50.7,-127.42,42.8,87,40,11.41
354,Kidal,ML,2020-02-22 21:28:42,18.44,1.41,79.88,9,71,16.33
355,Bandar-E Anzali,IR,2020-02-22 21:28:42,37.47,49.46,50.67,94,34,4.05
356,Dourdan,FR,2020-02-22 21:28:42,48.53,2.01,54.0,76,90,12.75
357,Fort Nelson,CA,2020-02-22 21:28:43,58.81,-122.7,37.4,25,40,18.34
358,Kamenka,RU,2020-02-22 21:24:49,51.32,42.77,30.0,93,100,1.99
359,Evensk,RU,2020-02-22 21:28:43,61.95,159.23,-13.77,77,95,4.23
360,Uige,AO,2020-02-22 21:28:43,-7.61,15.06,70.41,93,100,0.45
361,Ola,RU,2020-02-22 21:28:44,59.58,151.28,-5.12,95,100,2.95
362,Porto Feliz,BR,2020-02-22 21:28:44,-23.21,-47.52,70.0,73,75,19.46
363,Pangai,TO,2020-02-22 21:28:44,-19.8,-174.35,82.4,88,90,9.17
364,Ketchikan,US,2020-02-22 21:28:44,55.34,-131.65,42.8,80,75,4.7
365,Moussoro,TD,2020-02-22 21:28:44,13.64,16.49,76.1,12,0,17.31
366,Kihei,US,2020-02-22 21:28:39,20.79,-156.47,80.6,51,40,6.93
367,Nara,JP,2020-02-22 21:27:18,34.69,135.8,48.2,80,20,4.7
368,Nhlangano,SZ,2020-02-22 21:28:45,-27.12,31.2,65.98,97,95,4.72
369,Hamilton,US,2020-02-22 21:26:55,39.18,-84.53,51.01,21,1,8.05
370,Lamu,KE,2020-02-22 21:28:45,-2.27,40.9,81.79,81,71,17.81
371,Bundaberg,AU,2020-02-22 21:24:36,-24.85,152.35,77.0,78,75,11.41
372,Naze,JP,2020-02-22 21:28:46,28.37,129.48,60.8,59,75,13.87
373,Berlevag,NO,2020-02-22 21:28:46,70.86,29.09,36.25,77,0,31.68
374,Portel,BR,2020-02-22 21:28:46,-1.94,-50.82,78.76,96,68,2.73
375,Margate,GB,2020-02-22 21:28:46,51.38,1.39,52.0,66,40,16.11
376,Poum,NC,2020-02-22 21:28:47,-20.23,164.02,80.56,81,0,18.79
377,Aksu,CN,2020-02-22 21:27:27,41.12,80.26,33.46,49,0,4.85
378,Eyl,SO,2020-02-22 21:24:08,7.98,49.82,76.93,79,0,21.81
379,Zaterechnyy,RU,2020-02-22 21:28:47,44.79,45.21,34.9,75,28,6.62
380,Benjamin Constant,BR,2020-02-22 21:28:48,-4.38,-70.03,77.0,94,75,2.24
381,Shubarshi,KZ,2020-02-22 21:28:48,48.59,57.19,18.72,91,52,6.91
382,Chebenki,RU,2020-02-22 21:28:48,51.93,55.71,10.4,85,90,2.24
383,Portland,US,2020-02-22 21:24:08,45.52,-122.68,55.99,43,75,2.26
384,Maceio,BR,2020-02-22 21:24:01,-9.67,-35.74,82.4,78,20,11.41
385,Paciran,ID,2020-02-22 21:28:49,-6.88,112.38,75.79,92,99,4.05
386,Bayan,CN,2020-02-22 21:28:49,46.08,127.4,0.68,97,92,3.42
387,Elk City,US,2020-02-22 21:28:49,35.41,-99.4,62.6,44,1,17.22
388,Labuan,MY,2020-02-22 21:28:49,5.28,115.24,78.8,88,75,8.05
389,Clonakilty,IE,2020-02-22 21:28:50,51.62,-8.87,46.99,100,75,14.99
390,Jacqueville,CI,2020-02-22 21:28:50,5.21,-4.41,82.4,83,84,8.05
391,Lodja,CD,2020-02-22 21:28:50,-3.48,23.43,73.78,87,100,1.19
392,Ulladulla,AU,2020-02-22 21:28:50,-35.35,150.47,68.0,82,18,2.24
393,Abay,KZ,2020-02-22 21:28:50,49.63,72.85,19.4,85,90,4.47
394,Klyuchi,RU,2020-02-22 21:28:51,52.27,79.17,13.89,96,86,7.81
395,Muros,ES,2020-02-22 21:27:32,42.78,-9.06,59.0,100,75,2.24
396,Cururupu,BR,2020-02-22 21:28:51,-1.83,-44.87,77.77,96,94,2.57
397,Mogadishu,SO,2020-02-22 21:28:51,2.04,45.34,81.72,85,0,23.51
398,Vanimo,PG,2020-02-22 21:28:51,-2.67,141.3,81.27,80,36,9.95
399,Ixtapa,MX,2020-02-22 21:27:51,20.7,-105.2,84.2,62,5,9.17
400,Charcas,MX,2020-02-22 21:28:52,23.13,-101.12,71.56,32,19,5.23
401,Ostrovnoy,RU,2020-02-22 21:28:52,68.05,39.51,33.8,95,100,35.61
402,Caravelas,BR,2020-02-22 21:26:51,-17.71,-39.25,81.5,84,94,15.95
403,Oneonta,US,2020-02-22 21:27:21,42.45,-75.06,39.99,46,98,4.0
404,Presidencia Roque Saenz Pena,AR,2020-02-22 21:28:01,-26.79,-60.44,77.61,35,0,5.5
405,Ugep,NG,2020-02-22 21:28:53,5.81,8.08,85.37,41,28,10.67
406,Mineros,BO,2020-02-22 21:28:53,-17.12,-63.23,80.6,44,40,17.22
407,La Pintada,CO,2020-02-22 21:28:53,5.75,-75.61,77.0,93,75,6.93
408,Itaituba,BR,2020-02-22 21:26:23,-4.28,-55.98,82.4,83,20,2.77
409,Marihatag,PH,2020-02-22 21:28:54,8.79,126.3,80.28,73,45,12.86
410,San Mateo Del Mar,MX,2020-02-22 21:28:54,16.2,-95.0,79.18,67,0,42.43
411,Clarence Town,AU,2020-02-22 21:28:54,-32.58,151.78,73.99,82,100,1.81
412,Faya,SA,2020-02-22 21:24:20,18.39,42.45,62.6,33,41,11.41
413,Santa Cruz Del Sur,CU,2020-02-22 21:28:55,20.71,-78.0,79.75,72,0,10.51
414,Coquimbo,CL,2020-02-22 21:28:55,-29.95,-71.34,64.4,72,20,11.41
415,Hvide Sande,DK,2020-02-22 21:28:55,56.0,8.13,43.0,68,33,26.4
416,Opuwo,NA,2020-02-22 21:28:55,-18.06,13.84,75.4,29,66,6.96
417,Fukue,JP,2020-02-22 21:24:07,32.69,128.84,44.6,64,0,16.11
418,Komsomolskiy,UZ,2020-02-22 21:28:56,40.43,71.72,44.6,86,87,6.93
419,Hukuntsi,BW,2020-02-22 21:28:56,-24.0,21.75,74.82,72,100,5.1
420,Port Blair,IN,2020-02-22 21:28:56,11.67,92.75,80.6,78,40,4.7
421,Sfantu Gheorghe,RO,2020-02-22 21:28:56,45.87,25.78,32.0,89,15,4.94
422,Toppenish,US,2020-02-22 21:28:56,46.38,-120.31,55.99,37,1,4.7
423,Cidreira,BR,2020-02-22 21:26:31,-30.18,-50.21,70.93,67,15,17.34
424,Naugachhia,IN,2020-02-22 21:28:57,25.4,87.1,66.25,63,25,4.88
425,Palayan,PH,2020-02-22 21:28:57,15.54,121.08,71.6,78,20,3.36
426,Raga,SS,2020-02-22 21:28:57,8.46,25.68,72.39,14,0,5.1
427,Knysna,ZA,2020-02-22 21:28:57,-34.04,23.05,62.6,88,100,8.05
428,Port Moresby,PG,2020-02-22 21:25:10,-9.44,147.18,77.0,94,40,8.05
429,Ornskoldsvik,SE,2020-02-22 21:28:58,63.29,18.72,35.6,80,100,14.99
430,Carutapera,BR,2020-02-22 21:28:58,-1.2,-46.02,81.95,75,20,4.16
431,Darhan,MN,2020-02-22 21:28:58,49.49,105.92,12.4,82,100,3.04
432,Taldan,RU,2020-02-22 21:28:58,53.67,124.8,-1.46,97,98,1.39
433,Ereymentau,KZ,2020-02-22 21:28:59,51.62,73.1,13.42,97,97,3.02
434,Akyab,MM,2020-02-22 21:28:59,20.15,92.9,72.45,49,0,7.96
435,Palmer,US,2020-02-22 21:28:59,42.16,-72.33,48.2,26,20,10.29
436,Mantua,IT,2020-02-22 21:28:59,45.17,10.78,46.99,65,67,4.7
437,College,US,2020-02-22 21:29:00,64.86,-147.8,10.99,84,90,10.29
438,Yar-Sale,RU,2020-02-22 21:25:59,66.83,70.83,20.55,90,93,18.79
439,Ilhabela,BR,2020-02-22 21:28:12,-23.78,-45.36,74.1,75,100,13.4
440,Leningradskiy,RU,2020-02-22 21:29:00,69.38,178.42,-12.59,95,100,9.93
441,Labytnangi,RU,2020-02-22 21:29:01,66.66,66.42,19.24,89,61,15.14
442,Luancheng,CN,2020-02-22 21:29:01,37.88,114.65,26.6,68,0,2.24
443,Kugulta,RU,2020-02-22 21:29:01,45.36,42.39,32.0,87,90,6.71
444,Plettenberg Bay,ZA,2020-02-22 21:29:01,-34.05,23.37,65.5,87,100,13.29
445,Smithers,CA,2020-02-22 21:29:01,54.78,-127.17,37.4,47,40,9.17
446,Clyde River,CA,2020-02-22 21:26:08,70.47,-68.59,-27.4,74,1,4.7
447,Tambacounda,SN,2020-02-22 21:29:02,13.75,-13.76,93.2,17,64,4.7
448,Linxia,CN,2020-02-22 21:24:15,35.6,103.21,33.96,21,23,4.81
449,San Cristobal,VE,2020-02-22 21:29:02,7.77,-72.22,84.2,58,40,12.75
450,Husavik,IS,2020-02-22 21:29:02,66.04,-17.34,21.94,87,100,10.38
451,Kalmunai,LK,2020-02-22 21:29:03,7.42,81.82,80.53,82,92,17.11
452,Sudak,UA,2020-02-22 21:29:03,44.85,34.97,34.09,94,56,5.5
453,Saint-Augustin,CA,2020-02-22 21:29:03,51.23,-58.65,21.63,87,100,21.74
454,Mnogovershinnyy,RU,2020-02-22 21:29:03,53.94,139.92,-2.6,85,0,1.68
455,Houma,US,2020-02-22 21:29:04,29.6,-90.72,63.0,62,40,6.93
456,Bay Roberts,CA,2020-02-22 21:29:04,47.6,-53.26,24.01,67,20,20.8
457,Mandalgovi,MN,2020-02-22 21:26:57,45.76,106.27,19.24,58,100,9.66
458,West Bay,KY,2020-02-22 21:29:05,19.37,-81.42,78.8,69,75,12.75
459,Ponta Do Sol,PT,2020-02-22 21:29:05,32.67,-17.1,70.0,77,20,21.92
460,Coromandel,BR,2020-02-22 21:29:05,-18.47,-47.2,73.26,91,85,5.35
461,Rio Cauto,CU,2020-02-22 21:29:05,20.56,-76.92,82.4,61,40,16.11
462,Bilokurakyne,UA,2020-02-22 21:29:05,49.53,38.73,32.18,99,100,2.42
463,Savonlinna,FI,2020-02-22 21:29:06,61.87,28.92,33.8,92,90,18.34
464,Kautokeino,NO,2020-02-22 21:29:06,69.01,23.04,21.81,94,67,18.68
465,Burgos,ES,2020-02-22 21:29:06,42.34,-3.71,48.99,51,0,1.12
466,Antalaha,MG,2020-02-22 21:29:06,-14.9,50.28,81.16,80,94,7.76
467,Santa Maria,BR,2020-02-22 21:28:03,-29.68,-53.81,73.4,40,0,6.93
468,San Benito,GT,2020-02-22 21:29:07,16.91,-89.91,71.53,82,100,2.86
469,Green Valley,US,2020-02-22 21:29:07,31.85,-110.99,66.2,63,90,3.36
470,El Jicaro,GT,2020-02-22 21:29:07,14.92,-89.9,77.22,49,35,7.23
471,Sobolevo,RU,2020-02-22 21:29:07,54.43,31.9,33.35,95,100,26.19
472,Balfour,ZA,2020-02-22 21:29:07,-26.66,28.59,63.0,90,100,6.76
473,Sri Aman,MY,2020-02-22 21:29:08,1.24,111.46,77.0,94,55,2.93
474,Tahta,EG,2020-02-22 21:29:08,26.77,31.5,55.4,43,12,8.05
475,Pingdingshan,CN,2020-02-22 21:29:08,33.74,113.3,43.32,72,31,3.27
476,La Asuncion,VE,2020-02-22 21:29:08,11.03,-63.86,73.4,73,100,16.11
477,Aquiraz,BR,2020-02-22 21:29:08,-3.9,-38.39,80.6,83,75,4.7
478,General Roca,AR,2020-02-22 21:29:09,-39.03,-67.58,82.4,21,0,10.29
479,Trelew,AR,2020-02-22 21:29:09,-43.25,-65.31,88.56,5,0,16.73
480,Wilson,US,2020-02-22 21:29:09,36.15,-86.28,55.0,25,1,3.36
481,Grindavik,IS,2020-02-22 21:24:41,63.84,-22.43,28.4,79,100,5.82
482,Abu Dhabi,AE,2020-02-22 21:27:35,24.47,54.37,71.6,88,0,4.7
483,Buchanan,LR,2020-02-22 21:29:10,5.88,-10.05,80.6,83,20,4.38
484,Orodara,BF,2020-02-22 21:29:10,10.95,-4.93,84.2,39,0,5.82
485,Bay-Khaak,RU,2020-02-22 21:29:10,51.17,94.5,9.43,76,100,2.98
486,Mount Pleasant,US,2020-02-22 21:27:28,32.79,-79.86,57.99,32,1,2.51
487,Chanute,US,2020-02-22 21:29:11,37.68,-95.46,59.0,54,1,17.22
488,Tadine,NC,2020-02-22 21:24:14,-21.55,167.88,79.32,74,13,11.48
489,Anloga,GH,2020-02-22 21:26:03,5.79,0.9,84.2,89,20,11.41
490,Verkhnevilyuysk,RU,2020-02-22 21:29:12,63.45,120.32,-9.31,95,100,1.48
491,Cairns,AU,2020-02-22 21:28:03,-16.92,145.77,78.8,88,75,6.93
492,Det Udom,TH,2020-02-22 21:29:12,14.91,105.08,69.8,73,0,9.17
493,Tura,IN,2020-02-22 21:27:15,25.52,90.22,67.06,47,29,4.07
494,Puerto Ayacucho,VE,2020-02-22 21:29:13,5.66,-67.62,98.6,35,75,5.82
495,Port Macquarie,AU,2020-02-22 21:24:19,-31.43,152.92,68.0,100,75,3.36
496,Atar,MR,2020-02-22 21:29:13,20.52,-13.05,77.2,11,97,4.32
497,Port Hedland,AU,2020-02-22 21:29:13,-20.32,118.57,78.8,83,46,8.05
498,Yaan,NG,2020-02-22 21:29:13,7.38,8.57,86.4,14,0,2.59
499,Vicuna,CL,2020-02-22 21:29:14,-30.03,-70.71,82.99,72,20,11.41
500,Herouville-Saint-Clair,FR,2020-02-22 21:29:14,49.21,-0.31,50.0,100,90,12.75
501,Diffa,NE,2020-02-22 21:29:14,13.32,12.61,75.25,13,1,13.47
502,Honiara,SB,2020-02-22 21:26:22,-9.43,159.95,80.6,83,20,4.7
503,Tromso,NO,2020-02-22 21:29:14,69.65,18.96,35.6,93,90,26.4
504,Cheremukhovo,RU,2020-02-22 21:29:15,60.35,59.99,19.56,91,96,3.69
505,Pacific Grove,US,2020-02-22 21:29:15,36.62,-121.92,64.0,76,90,11.41
506,Ishinomaki,JP,2020-02-22 21:29:15,38.42,141.3,39.2,70,75,5.82
507,Ust-Nera,RU,2020-02-22 21:29:15,64.57,143.2,-26.79,100,100,1.19
508,Pochutla,MX,2020-02-22 21:29:16,15.74,-96.47,93.2,38,20,11.41
509,Harper,LR,2020-02-22 21:29:16,4.38,-7.72,78.24,93,98,4.65
510,Shamary,RU,2020-02-22 21:29:16,57.34,58.22,23.92,97,90,4.61
511,Kavarna,BG,2020-02-22 21:29:16,43.43,28.33,35.6,72,0,1.12
512,Sarankhola,BD,2020-02-22 21:29:16,22.31,89.79,66.22,52,0,5.73
513,Geraldton,AU,2020-02-22 21:29:17,-28.77,114.6,69.8,88,0,8.05
514,Terrace,CA,2020-02-22 21:29:17,54.52,-128.6,37.4,82,75,11.41
515,De Aar,ZA,2020-02-22 21:29:17,-30.65,24.01,66.56,52,0,26.91
516,Sechura,PE,2020-02-22 21:29:17,-5.56,-80.82,74.28,88,33,14.97
517,Guerrero Negro,MX,2020-02-22 21:29:18,27.98,-114.06,63.82,63,100,14.65
518,Povenets,RU,2020-02-22 21:29:18,62.85,34.83,32.07,96,100,20.83
519,Tilichiki,RU,2020-02-22 21:25:03,60.47,166.1,-14.67,92,0,3.0
520,Nouadhibou,MR,2020-02-22 21:29:18,20.93,-17.03,62.6,82,13,17.22
521,Chalus,IR,2020-02-22 21:24:42,36.66,51.42,51.8,87,90,2.24
522,Aras,ES,2020-02-22 21:29:19,42.56,-2.36,48.99,75,9,2.24
523,Galesong,ID,2020-02-22 21:29:19,-5.32,119.37,77.0,88,20,2.24
524,Belmonte,BR,2020-02-22 21:29:19,-15.86,-38.88,86.0,66,40,14.99
525,Swan Hill,AU,2020-02-22 21:29:19,-35.34,143.55,64.98,52,0,6.04
526,Neryungri,RU,2020-02-22 21:29:20,56.67,124.65,-3.3,78,50,1.86
527,Harboore,DK,2020-02-22 21:29:20,56.62,8.18,42.01,84,91,7.0
528,Zhezkazgan,KZ,2020-02-22 21:24:47,47.8,67.71,20.61,91,100,6.98
529,Lakatoro,VU,2020-02-22 21:29:20,-16.1,167.42,82.4,78,40,1.12
530,Katsuura,JP,2020-02-22 21:27:12,35.13,140.3,50.0,45,20,5.82
531,Minna,NG,2020-02-22 21:29:21,9.61,6.56,89.6,17,0,19.46
532,Simao,CN,2020-02-22 21:29:21,22.79,100.97,50.9,96,39,2.71
533,Udachnyy,RU,2020-02-22 21:29:21,66.42,112.4,-9.4,83,97,4.47
534,Kaukauna,US,2020-02-22 21:29:21,44.28,-88.27,42.8,59,1,11.41
535,Moron,AR,2020-02-22 21:29:21,-34.65,-58.62,78.01,43,0,5.82
536,Neyvo-Shaytanskiy,RU,2020-02-22 21:29:22,57.73,61.25,24.19,89,94,5.39
537,Rapid Valley,US,2020-02-22 21:24:52,44.06,-103.15,57.0,22,1,3.36
538,Nigran,ES,2020-02-22 21:29:22,42.14,-8.81,59.0,81,0,2.24
539,Lircay,PE,2020-02-22 21:24:45,-12.99,-74.72,66.2,52,75,5.82
540,Iqaluit,CA,2020-02-22 21:26:21,63.75,-68.51,-27.0,60,20,13.87
541,Mehamn,NO,2020-02-22 21:29:23,71.04,27.85,29.44,80,55,19.22
542,Ballina,AU,2020-02-22 21:29:23,-28.87,153.57,77.0,65,98,8.05
543,Shirgaon,IN,2020-02-22 21:29:23,19.7,72.7,79.02,58,0,7.85
544,Sant,RO,2020-02-22 21:29:23,47.45,24.9,23.09,96,100,5.28
545,Puerto Baquerizo Moreno,EC,2020-02-22 21:29:23,-0.9,-89.6,80.6,88,75,5.82
546,Sangar,RU,2020-02-22 21:29:24,63.92,127.47,-15.3,92,43,1.61
547,Jalu,LY,2020-02-22 21:29:24,29.03,21.55,55.53,59,0,13.44
548,Itaueira,BR,2020-02-22 21:29:25,-7.6,-43.03,80.82,79,36,1.66
549,Kadhan,PK,2020-02-22 21:29:25,24.48,68.99,69.87,35,25,10.38
550,Luderitz,NA,2020-02-22 21:29:25,-26.65,15.16,66.2,77,0,19.46
551,Hurricane,US,2020-02-22 21:29:25,37.18,-113.29,51.8,81,90,13.87
552,Key West,US,2020-02-22 21:29:26,24.56,-81.78,77.0,53,20,12.75
553,Dicabisagan,PH,2020-02-22 21:24:53,17.08,122.42,71.33,90,87,9.73
554,Axim,GH,2020-02-22 21:29:26,4.87,-2.24,79.57,89,78,5.95
555,Kungurtug,RU,2020-02-22 21:26:31,50.6,97.52,13.21,95,100,1.92
556,Fernie,CA,2020-02-22 21:29:26,49.5,-115.07,42.8,44,75,12.75
557,Tessalit,ML,2020-02-22 21:29:27,20.2,1.01,75.79,9,99,10.51
